City_ID,City,Lat,Lng,Max Temp,Humidity,Cloudiness,Wind Speed,Country,Date
0,ribeira grande,38.5167,-28.7,63.77,82,75,11.5,PT,1704055255
1,west island,-12.1568,96.8225,80.58,83,40,8.05,CC,1704055214
2,isafjordur,66.0755,-23.124,23.74,89,94,6.29,IS,1704055256
3,gibong,11.8634,122.0394,78.76,88,64,9.35,PH,1704055256
4,hamilton,39.1834,-84.5333,42.24,86,100,23.02,US,1704055185
5,tazovsky,67.4667,78.7,-6.88,97,98,10.94,RU,1704055257
6,waitangi,-43.9535,-176.5597,60.82,97,100,8.01,NZ,1704055258
7,grytviken,-54.2811,-36.5092,33.62,67,96,3.2,GS,1704055258
8,albany,42.6001,-73.9662,35.37,71,100,6.17,US,1704054971
9,wailua homesteads,22.0669,-159.378,79.23,73,0,7.0,US,1704055190
10,ushuaia,-54.8,-68.3,56.82,47,0,27.63,AR,1704055188
11,avarua,-21.2078,-159.775,84.25,65,40,12.66,CK,1704055259
12,fale old settlement,-9.3852,-171.2468,83.37,77,100,8.16,TK,1704055260
13,port-aux-francais,-49.35,70.2167,41.76,78,88,33.96,TF,1704055260
14,lata,40.1629,-8.3327,47.07,85,100,0.4,PT,1704055261
15,yellowknife,62.456,-114.3525,23.52,86,100,10.36,CA,1704055189
16,puerto ayora,-0.7393,-90.3518,79.56,91,41,5.99,EC,1704055111
17,blackmans bay,-43.0167,147.3167,59.74,85,100,1.45,AU,1704055262
18,itajuipe,-14.6781,-39.375,83.19,67,100,3.69,BR,1704055262
19,hermanus,-34.4187,19.2345,69.8,83,3,16.22,ZA,1704055235
20,aasiaat,68.7098,-52.8699,6.44,65,43,19.13,GL,1704055198
21,tiassale,5.8983,-4.8283,78.67,80,31,3.8,CI,1704055264
22,adamstown,-25.066,-130.1015,73.06,86,73,17.47,PN,1704055264
23,haiku-pauwela,20.9219,-156.3051,79.16,59,20,5.75,US,1704055238
24,yuzhno-kurilsk,44.0306,145.8556,26.38,78,100,24.14,RU,1704055265
25,cidreira,-30.1811,-50.2056,69.71,62,100,8.46,BR,1704055266
26,lubang,13.8584,120.124,80.51,82,38,17.16,PH,1704055266
27,fort bragg,35.139,-79.006,56.91,50,0,8.05,US,1704055266
28,enewetak,11.3474,162.3373,81.3,78,54,18.77,MH,1704055267
29,utrik,11.2278,169.8474,81.1,74,54,18.68,MH,1704055236
30,puerto natales,-51.7236,-72.4875,59.45,58,75,13.8,CL,1704055268
31,jamestown,42.097,-79.2353,36.99,94,100,4.61,US,1704055269
32,lodwar,3.1191,35.5973,84.22,48,73,4.54,KE,1704055269
33,sarmiento,-45.5882,-69.07,82.85,16,65,5.82,AR,1704055269
34,egilsstadir,65.2653,-14.3948,33.71,86,100,19.57,IS,1704055270
35,menongue,-14.6585,17.691,67.17,79,93,3.42,AO,1704055270
36,kapa'a,22.0752,-159.319,80.58,73,0,7.0,US,1704055271
37,nouadhibou,20.931,-17.0347,69.78,52,99,12.66,MR,1704055183
38,pemangkat,1.1667,108.9667,77.79,91,100,6.78,ID,1704055272
39,alaghsas,17.0187,8.0168,67.01,14,0,11.32,NE,1704055224
40,margaret river,-33.95,115.0667,55.42,92,24,9.06,AU,1704055272
41,hawaiian paradise park,19.5933,-154.9731,75.87,87,100,5.75,US,1704055273
42,longyearbyen,78.2186,15.6401,31.84,74,75,14.97,SJ,1704055273
43,olonkinbyen,70.9221,-8.7187,21.92,56,28,6.73,SJ,1704055274
44,akalkot,17.5333,76.2167,68.77,49,0,10.0,IN,1704055274
45,rostovka,55.3842,71.8891,-1.82,97,69,5.64,RU,1704055275
46,pulawy,51.4166,21.9694,38.21,94,100,6.98,PL,1704055275
47,garoowe,8.4054,48.4845,69.89,62,6,9.98,SO,1704055275
48,phan thiet,10.9333,108.1,73.09,86,92,5.1,VN,1704055276
49,vorgashor,67.5833,63.95,-20.56,98,53,4.76,RU,1704055276
50,altai,46.3722,96.2583,5.25,58,48,4.09,MN,1704055277
51,invercargill,-46.4,168.35,51.03,82,92,11.01,NZ,1704055190
52,badger,64.8,-147.5333,-8.64,77,0,0.0,US,1704055055
53,cole harbour,44.6724,-63.4751,31.98,87,93,5.99,CA,1704055278
54,cadillac,44.2519,-85.4012,31.91,93,100,11.5,US,1704055278
55,turpan,42.9333,89.1667,27.21,53,54,0.85,CN,1704055279
56,hohhot,40.8106,111.6522,10.69,79,0,2.24,CN,1704055191
57,papatowai,-46.5619,169.4708,51.44,66,86,16.13,NZ,1704055280
58,tura,25.5198,90.2201,58.06,64,0,3.2,IN,1704055281
59,gadzhiyevo,69.2551,33.3362,7.65,99,98,5.88,RU,1704055281
60,klaksvik,62.2266,-6.589,45.52,95,100,40.87,FO,1704055283
61,bethel,41.3712,-73.414,42.22,61,100,6.91,US,1704055208
62,laojunmiao,39.8333,97.7333,20.32,42,17,1.36,CN,1704055284
63,atafu village,-8.5421,-172.5159,83.43,75,100,8.9,TK,1704055284
64,pisco,-13.7,-76.2167,75.25,78,0,8.05,PE,1704055183
65,lihue,21.9789,-159.3672,79.84,66,0,4.61,US,1704055199
66,acapulco de juarez,16.8634,-99.8901,84.02,61,0,10.36,MX,1704055286
67,susuman,62.7833,148.1667,-31.02,100,100,1.01,RU,1704055286
68,tateyama,34.9833,139.8667,52.11,51,69,32.01,JP,1704055287
69,margate,51.3813,1.3862,47.89,76,100,13.0,GB,1704054747
70,port mathurin,-19.6833,63.4167,80.82,78,92,6.64,MU,1704055287
71,palikir - national government center,6.9248,158.1611,81.34,83,75,8.05,FM,1704055152
72,constantia,44.1833,28.65,39.7,84,6,10.02,RO,1704055288
73,vila do maio,15.1333,-23.2167,75.99,74,62,11.72,CV,1704055289
74,khovd,48.0056,91.6419,10.78,65,100,8.43,MN,1704055289
75,norilsk,69.3535,88.2027,-16.1,100,100,4.09,RU,1704055290
76,kazlu ruda,54.7667,23.5,31.98,88,100,7.02,LT,1704055291
77,bredasdorp,-34.5322,20.0403,66.49,85,2,12.64,ZA,1704055291
78,hata,26.7461,83.7403,52.77,72,0,5.37,IN,1704055292
79,igarka,67.4667,86.5833,-4.22,98,97,9.01,RU,1704055293
80,port elizabeth,-33.918,25.5701,67.1,99,75,11.5,ZA,1704055293
81,san andres,12.5847,-81.7006,86.02,70,20,11.5,CO,1704055294
82,st. john's,47.5649,-52.7093,35.78,94,100,20.71,CA,1704055185
83,mount gambier,-37.8333,140.7667,57.52,82,88,8.75,AU,1704055045
84,whitehorse,60.7161,-135.0538,6.1,85,75,0.0,CA,1704055189
85,sitka,57.0531,-135.33,39.09,70,75,3.44,US,1704055295
86,punta arenas,-53.15,-70.9167,55.51,44,75,20.71,CL,1704055296
87,kineshma,57.4391,42.1289,13.41,96,100,6.78,RU,1704055296
88,carbonear,47.7332,-53.2148,36.25,89,100,17.72,CA,1704055296
89,piton saint-leu,-21.2196,55.3151,77.11,78,75,17.27,RE,1704055297
90,kayangel,8.0823,134.7173,82.9,80,36,9.17,PW,1704055297
91,gulf shores,30.246,-87.7008,63.28,56,0,8.05,US,1704055298
92,bilibino,68.0546,166.4372,-20.78,90,100,5.21,RU,1704055298
93,kingston,17.997,-76.7936,83.35,61,75,9.22,JM,1704055298
94,jabor,5.921,169.6434,82.29,81,97,14.88,MH,1704055299
95,sorong,-0.8833,131.25,80.55,82,87,3.47,ID,1704055299
96,ploneour-lanvern,47.9,-4.2833,50.32,71,100,13.8,FR,1704055300
97,port-vila,-17.7338,168.3219,81.12,80,92,13.91,VU,1704055300
98,tofol,5.3248,163.0078,83.28,82,51,19.37,FM,1704055301
99,stanley,54.868,-1.6985,39.72,94,75,8.05,GB,1704055301
100,klyuchi,52.2667,79.1667,16.27,93,72,8.05,RU,1704055235
101,ust-nera,64.5667,143.2,-48.86,98,76,4.61,RU,1704055302
102,ulcinj,41.9294,19.2244,47.98,80,32,3.78,ME,1704055302
103,ilulissat,69.2167,-51.1,10.42,52,38,32.21,GL,1704055302
104,montrose,38.4166,-108.2673,36.73,35,51,2.13,US,1704055303
105,kodiak,57.79,-152.4072,24.31,86,0,5.75,US,1704055303
106,sal rei,16.1833,-22.9167,75.27,72,0,11.81,CV,1704055303
107,iskateley,67.6803,53.1512,-6.29,100,100,7.76,RU,1704055304
108,coquimbo,-29.9533,-71.3436,71.33,60,0,13.8,CL,1704055304
109,lazaro cardenas,17.9583,-102.2,81.14,57,46,8.66,MX,1704055305
110,kapuskasing,49.4169,-82.4331,12.29,79,100,6.91,CA,1704055305
111,georgetown,5.4112,100.3354,80.53,86,20,5.75,MY,1704055305
112,colonia,50.9333,6.95,49.77,71,75,17.27,DE,1704055306
113,vilyuchinsk,52.9306,158.4028,-1.75,67,2,10.33,RU,1704055306
114,talnakh,69.4865,88.3972,-18.67,100,97,4.68,RU,1704055306
115,bel ombre,-4.6167,55.4167,75.04,94,75,0.0,SC,1704055307
116,tymovskoye,50.8456,142.655,-20.47,94,4,2.73,RU,1704055307
117,al jawf,29.5,38.75,55.83,66,59,5.32,SA,1704055307
118,nova sintra,14.8667,-24.7167,72.93,66,10,7.31,CV,1704055308
119,iqaluit,63.7506,-68.5145,-2.47,78,75,19.57,CA,1704055308
120,edinburgh of the seven seas,-37.0676,-12.3116,64.45,97,100,19.75,SH,1704055194
121,champerico,14.3,-91.9167,95.54,65,0,7.87,GT,1704055309
122,codrington,-38.2667,141.9667,56.71,82,100,8.5,AU,1704055309
123,katsuura,35.1333,140.3,50.65,59,99,22.82,JP,1704055223
124,northam,51.0333,-4.2167,49.24,83,98,31.74,GB,1704055310
125,charnay-les-macon,46.3075,4.7848,41.56,88,36,5.32,FR,1704055310
126,cabo san lucas,22.8909,-109.9124,83.5,62,75,10.36,MX,1704055228
127,arteche,12.2645,125.4048,77.9,89,46,4.38,PH,1704055311
128,cottbus,51.7667,14.3333,43.97,84,100,1.99,DE,1704055311
129,island harbour,50.724,-1.2758,50.32,86,85,11.01,GB,1704055312
130,shakawe,-18.3667,21.85,74.57,60,16,4.81,BW,1704055312
131,kikwit,-5.041,18.8162,70.95,97,100,0.83,CD,1704055312
132,gorontalo,0.5412,123.0595,75.76,96,81,3.24,ID,1704055313
133,yung shue wan,22.2333,114.1167,67.75,75,63,1.99,HK,1704055313
134,forster,-32.1667,152.5167,68.29,100,100,11.36,AU,1704055314
135,carnarvon,-24.8667,113.6333,73.08,80,0,20.07,AU,1704055314
136,tiksi,71.6872,128.8694,-24.95,100,100,3.69,RU,1704055314
137,happy valley-goose bay,53.3168,-60.3315,19.71,73,100,10.36,CA,1704055215
138,port saint john's,-31.6229,29.5448,71.82,93,19,7.36,ZA,1704055193
139,katsuren-haebaru,26.3369,127.8719,62.98,51,75,6.91,JP,1704055315
140,sur,22.5667,59.5289,71.01,64,0,3.47,OM,1704055316
141,ola,59.5833,151.2833,-13.88,84,94,7.65,RU,1704055316
142,mugia,43.1041,-9.2179,49.91,64,100,13.65,ES,1704055316
143,alice springs,-23.7,133.8833,63.95,25,91,0.0,AU,1704055125
144,vierzon,47.2101,2.0625,47.75,84,76,16.44,FR,1704055317
145,ponca city,36.707,-97.0856,37.36,70,100,16.11,US,1704055317
146,taiping,4.85,100.7333,77.22,97,64,3.33,MY,1704055318
147,macapa,0.0389,-51.0664,89.58,70,20,3.44,BR,1704055146
148,bodo,67.28,14.405,23.04,63,0,27.63,NO,1704055318
149,keflavik,64.0049,-22.5624,27.03,68,0,6.91,IS,1704055283
150,acarau,-2.8856,-40.12,82.15,76,94,9.53,BR,1704055319
151,hilo,19.7297,-155.09,77.61,83,100,5.75,US,1704055133
152,ulladulla,-35.35,150.4667,63.63,84,95,2.35,AU,1704055320
153,saipan,15.1355,145.701,81.3,83,0,13.8,MP,1704055320
154,verkhnevilyuysk,63.4453,120.3167,-6.74,99,100,3.36,RU,1704055321
155,alvand,36.3187,49.1678,39.2,66,100,5.37,IR,1704055321
156,fortuna,40.5982,-124.1573,53.94,97,0,1.99,US,1704055127
157,kupang,-10.1667,123.5833,79.38,100,59,2.3,ID,1704055322
158,calvinia,-31.4707,19.776,68.52,58,77,18.23,ZA,1704055322
159,batangafo,7.3008,18.2833,75.07,23,2,3.11,CF,1704055323
160,nova vicosa,-17.8919,-39.3719,78.26,84,95,8.37,BR,1704055323
161,nawanshahr,31.1167,76.1333,47.75,49,0,1.59,IN,1704055323
162,novovolyns'k,50.7258,24.1626,39.74,91,100,7.65,UA,1704055324
163,dailekh,28.8333,81.6667,50.23,64,0,5.3,NP,1704055324
164,chadan,51.2833,91.5833,-9.99,92,82,2.8,RU,1704055325
165,selfoss,63.9331,-20.9971,19.04,74,100,11.59,IS,1704055325
166,nemuro,43.3236,145.575,24.3,71,100,24.4,JP,1704055242
167,kargasok,59.0556,80.8572,4.96,93,100,8.99,RU,1704055326
168,calama,-22.4667,-68.9333,79.29,18,0,26.46,CL,1704055327
169,lebu,-37.6167,-73.65,62.42,71,6,7.63,CL,1704055327
170,mahalapye,-23.1041,26.8142,81.34,37,66,5.17,BW,1704055327
171,thompson,55.7435,-97.8558,28.56,69,75,11.5,CA,1704055328
172,kuta,-8.7233,115.1723,82.35,94,40,2.3,ID,1704055328
173,cape coast,5.1053,-1.2466,81.5,81,6,8.12,GH,1704055329
174,manokwari,-0.8667,134.0833,79.59,79,82,2.55,ID,1704055329
175,palmer,42.1584,-72.3287,38.14,59,75,9.22,US,1704055148
176,coaldale,49.7167,-112.6185,54.91,37,40,28.77,CA,1704055330
177,can giuoc,10.6167,106.6667,77.04,87,100,2.33,VN,1704055331
178,geraldton,-28.7667,114.6,72.01,83,100,8.05,AU,1704055331
179,petropavlovsk-kamchatsky,53.0452,158.6483,-3.23,72,0,14.0,RU,1704055189
180,north branch,45.5113,-92.9802,26.67,83,35,5.01,US,1704055332
181,manakara,-22.1333,48.0167,75.16,97,100,2.98,MG,1704055333
182,dabai,11.4765,5.2063,74.53,19,5,8.23,NG,1704055333
183,hasaki,35.7333,140.8333,46.8,61,83,26.22,JP,1704055260
184,mejit,10.2753,170.8646,81.09,78,59,19.19,MH,1704055334
185,mahina,-17.5065,-149.489,87.57,66,40,4.61,PF,1704055334
186,labytnangi,66.6572,66.4183,-8.21,97,100,2.21,RU,1704055335
187,las trojes,14.0667,-85.9833,71.11,71,92,5.97,HN,1704055335
188,tabuk,17.4189,121.4443,72.63,95,91,3.04,PH,1704055336
189,ndola,-12.9587,28.6366,63.48,98,100,2.51,ZM,1704055336
190,igrim,63.1906,64.4162,-30.12,99,15,1.59,RU,1704055337
191,raichur,16.2,77.3667,65.7,82,0,7.07,IN,1704055256
192,laufach,50.0167,9.3,45.3,81,100,10.94,DE,1704055338
193,monterrey,25.6667,-100.3167,79.75,37,13,3.44,MX,1704055206
194,kamaishi,39.2667,141.8833,36.97,89,97,9.28,JP,1704055339
195,galion,40.7337,-82.7899,37.87,90,100,7.14,US,1704055339
196,valparaiso,-33.0393,-71.6273,77.23,57,0,13.8,CL,1704055340
197,uturoa,-16.7333,-151.4333,82.47,80,98,13.49,PF,1704055340
198,dudinka,69.4058,86.1778,-20.33,95,100,10.0,RU,1704055337
199,tolanaro,-25.0319,46.9987,73.47,88,75,5.75,MG,1704055341
200,malango,-2.9627,119.9001,68.58,96,95,1.66,ID,1704055341
201,castillos,-34.1667,-53.8333,67.89,49,49,8.68,UY,1704055342
202,mhasvad,17.6333,74.7833,68.0,51,0,4.7,IN,1704055343
203,luganville,-15.5333,167.1667,81.1,85,99,9.44,VU,1704055343
204,ninghai,29.2892,121.4247,38.01,87,5,4.74,CN,1704055344
205,isangel,-19.55,169.2667,82.99,69,79,9.71,VU,1704055068
206,karak city,31.1637,35.762,49.03,73,0,2.8,JO,1704055345
207,great falls,47.5002,-111.3008,51.17,48,0,18.41,US,1704055224
208,natal,-5.795,-35.2094,84.85,74,40,14.97,BR,1704055133
209,shahdol,23.2833,81.35,56.88,53,0,1.72,IN,1704055346
210,mogocha,53.7333,119.7667,-1.59,99,100,0.76,RU,1704055346
211,mount pearl,47.5166,-52.7813,34.95,94,100,20.71,CA,1704055347
212,nobres,-14.7203,-56.3275,91.04,44,100,3.71,BR,1704055347
213,olinda,-8.0089,-34.8553,83.93,74,75,9.22,BR,1704055347
214,ocean shores,46.9737,-124.1563,50.02,93,40,6.91,US,1704055348
215,aleksandrovsk-sakhalinskiy,50.8975,142.1561,-19.43,93,12,5.37,RU,1704055348
216,ranau,5.9538,116.6641,70.02,97,59,0.27,MY,1704055349
217,kitob,39.0843,66.8332,46.33,29,7,3.83,UZ,1704055349
218,newman,37.3138,-121.0208,57.06,92,100,1.99,US,1704055350
219,chernomorskoye,45.5039,32.6997,45.1,69,0,3.96,UA,1704055350
220,callao,-12.0667,-77.15,77.29,65,20,12.66,PE,1704055350
221,yemel'yanovo,56.1681,92.6767,22.08,79,40,18.01,RU,1704055351
222,talitsa,56.8804,60.0213,12.74,95,100,8.14,RU,1704055352
223,ruteng,-8.6136,120.4721,64.6,93,94,1.41,ID,1704055352
224,weno,7.4515,151.8468,84.15,84,75,9.22,FM,1704055352
225,nar'yan-mar,67.6713,53.087,-6.07,100,100,7.87,RU,1704055353
226,remire-montjoly,4.9167,-52.2667,86.04,62,0,8.05,GF,1704055354
227,amga,60.8953,131.9608,-24.07,97,99,2.89,RU,1704055354
228,letlhakane,-21.4167,25.5833,78.4,50,79,10.58,BW,1704055355
229,byford,-32.2167,116.0,66.67,71,0,10.36,AU,1704055355
230,tosontsengel,48.7567,98.2839,-15.5,88,13,1.1,MN,1704055356
231,bubaque,11.2833,-15.8333,79.66,72,96,12.06,GW,1704055356
232,berber,18.0216,33.983,69.55,34,0,11.03,SD,1704055356
233,uzgen,40.7699,73.3007,25.09,56,7,5.66,KG,1704055357
234,tanvald,50.7374,15.3059,41.68,89,100,3.71,CZ,1704055357
235,labrador city,52.9463,-66.9114,10.31,85,100,12.66,CA,1704055358
236,afaahiti,-17.75,-149.2833,85.87,82,100,11.27,PF,1704055358
237,srivardhan,18.0333,73.0167,73.63,55,0,3.74,IN,1704055358
238,dingli,35.8614,14.3822,53.76,88,0,4.61,MT,1704055359
239,sarrebourg,48.7333,7.05,41.81,84,7,18.77,FR,1704055359
240,dunedin,-45.8742,170.5036,54.81,91,62,4.0,NZ,1704055264
241,luanda,-8.8368,13.2343,80.6,76,0,9.22,AO,1704055360
242,mirador,-6.3708,-44.3631,79.41,86,96,4.45,BR,1704055360
243,galliano,29.4422,-90.2992,70.0,46,0,9.22,US,1704055361
244,smithers,54.7804,-127.1743,32.32,100,100,2.3,CA,1704055361
245,fort wellington,6.4,-57.6,80.55,80,65,8.34,GY,1704055361
246,kuruman,-27.4524,23.4325,70.86,46,0,10.4,ZA,1704055362
247,ta`u,-14.2336,-169.5144,82.56,80,82,11.34,AS,1704055362
248,luchegorsk,46.4764,134.2569,-25.33,100,94,0.92,RU,1704055362
249,leh,34.1667,77.5833,20.71,54,23,2.04,IN,1704055363
250,kamenka,51.3223,42.7678,34.77,77,98,18.05,RU,1704055364
251,rambouillet,48.5833,1.9167,45.59,87,76,18.92,FR,1704055364
252,mulanje,-16.0316,35.5,72.27,91,100,1.74,MW,1704055364
253,cannonvale,-20.2833,148.7,74.59,79,86,9.22,AU,1704055365
254,bamboo flat,11.7,92.7167,80.69,74,20,6.91,IN,1704055365
255,luderitz,-26.6481,15.1594,63.18,84,1,1.45,NA,1704055365
256,pauri,30.15,78.7833,43.09,55,0,3.71,IN,1704055366
257,savyntsi,49.4026,37.0627,34.23,86,7,11.54,UA,1704055366
258,palau,7.503,134.621,81.16,81,8,5.99,PW,1704055366
259,villa gesell,-37.2639,-56.973,78.06,48,77,11.16,AR,1704055367
260,port augusta,-32.5,137.7667,70.14,35,74,6.08,AU,1704055367
261,berezovo,63.9381,65.0419,-31.25,95,16,3.62,RU,1704055368
262,sisimiut,66.9395,-53.6735,13.19,63,35,11.72,GL,1704055368
263,chonchi,-42.6128,-73.8092,67.21,63,100,1.23,CL,1704055368
264,simpang,-1.2667,104.0833,75.22,98,100,2.68,ID,1704055369
265,nouna,12.7333,-3.8667,77.95,13,6,8.28,BF,1704055369
266,ujae,8.9322,165.7642,82.18,80,43,17.45,MH,1704055369
267,achikulak,44.5517,44.8378,43.11,80,22,9.24,RU,1704055370
268,college,64.8569,-147.8028,-8.55,77,40,0.0,US,1704055370
269,korop,51.5664,32.9586,33.91,89,85,10.29,UA,1704055371
270,vikhorevka,56.1201,101.1636,20.79,84,100,11.5,RU,1704055371
271,bitkine,11.9801,18.2138,75.02,20,3,4.97,TD,1704055371
272,nuku'alofa,-21.1333,-175.2,80.94,74,20,12.66,TO,1704055372
273,vadso,70.0744,29.7487,21.36,79,100,11.5,NO,1704055372
274,sinabang,2.4803,96.3801,78.8,84,87,0.25,ID,1704055228
275,sadri,25.1833,73.4333,59.79,62,0,3.62,IN,1704055373
276,weligama,5.9667,80.4167,75.02,90,93,6.44,LK,1704055234
277,marka,1.7159,44.7717,79.32,76,7,16.89,SO,1704055374
278,huadian,42.9633,126.7478,-2.43,100,93,1.88,CN,1704055374
279,shimoda,34.6667,138.95,52.18,75,38,4.18,JP,1704055375
280,pyhajarvi,67.0701,27.2176,-10.19,100,100,0.2,FI,1704055375
281,east london,-33.0153,27.9116,69.12,86,100,13.62,ZA,1704055189
282,reyes,-14.3167,-67.3833,82.56,78,75,11.5,BO,1704055376
283,jasper,37.2001,-94.3502,33.24,74,100,11.5,US,1704055376
284,san agustin de valle fertil,-30.6335,-67.4682,89.19,33,0,18.07,AR,1704055377
285,kogalym,62.2654,74.4791,-15.77,100,76,7.92,RU,1704055377
286,linfen,36.0889,111.5189,31.91,67,70,2.19,CN,1704055377
287,ocna mures,46.3833,23.85,43.23,100,100,3.44,RO,1704055378
288,arraial do cabo,-22.9661,-42.0278,78.76,65,75,5.75,BR,1704055378
289,noumea,-22.2763,166.4572,87.78,99,3,5.88,NC,1704055379
290,san patricio,28.017,-97.5169,77.09,49,13,14.16,US,1704055222
291,merizo village,13.2658,144.6691,80.33,93,100,18.88,GU,1704055379
292,chinde,26.8418,88.0763,47.55,70,0,4.36,NP,1704055380
293,lepsy,46.235,78.9456,30.09,71,74,4.79,KZ,1704055380
294,bayji,34.9311,43.487,52.83,45,100,5.66,IQ,1704055381
295,batang,-6.4846,110.7083,80.44,83,100,1.66,ID,1704055381
296,newnham,-41.3833,147.1333,57.67,82,83,0.0,AU,1704055381
297,walvis bay,-22.9575,14.5053,68.95,68,0,3.44,NA,1704055382
298,la ronge,55.1001,-105.2842,30.45,59,75,6.91,CA,1704055382
299,rosslyn,-25.6242,28.0942,71.53,88,39,0.0,ZA,1704055383
300,urangan,-25.3,152.9,77.2,94,85,4.0,AU,1704055383
301,mawu,29.5923,107.3139,52.56,83,100,1.61,CN,1704055384
302,bayamo,20.3792,-76.6433,68.68,90,100,5.59,CU,1704055384
303,howrah,22.5892,88.3103,60.8,88,0,6.91,IN,1704055299
304,tidjikja,18.5564,-11.4271,70.21,13,69,10.45,MR,1704055385
305,polyarnyy,69.1989,33.4478,8.08,98,98,6.08,RU,1704055244
306,kokopo,-4.352,152.2633,79.77,85,17,4.05,PG,1704055386
307,tarrafal de sao nicolau,16.5667,-24.3667,75.54,68,0,10.49,CV,1704055386
308,panaba,21.2833,-88.2667,79.32,37,0,7.61,MX,1704055386
309,cill airne,52.05,-9.5167,43.29,80,67,17.07,IE,1704055387
310,kimbe,-5.5502,150.1429,78.66,91,38,1.57,PG,1704055387
311,mpraeso,6.5932,-0.7346,75.25,52,3,2.19,GH,1704055387
312,jiangzi,28.95,89.6333,17.24,63,6,4.25,CN,1704055388
313,rawai,7.7797,98.3253,78.91,81,88,7.34,TH,1704055388
314,riohacha,11.5444,-72.9072,86.11,74,20,13.8,CO,1704055389
315,burang,30.25,81.1667,16.92,66,4,2.24,CN,1704055389
316,nadym,65.5333,72.5167,-10.43,100,94,8.12,RU,1704055390
317,kievka,50.2619,71.5514,30.15,91,100,16.49,KZ,1704055390
318,udachny,66.4167,112.4,-15.56,82,100,0.92,RU,1704055391
319,horta,38.5333,-28.6333,63.01,87,75,11.5,PT,1704055230
320,kailua-kona,19.6406,-155.9956,80.98,69,20,5.75,US,1704055391
321,qaqortoq,60.7167,-46.0333,9.12,65,86,8.59,GL,1704055392
322,dhidhdhoo,6.8833,73.1,76.98,92,100,11.7,MV,1704055392
323,anna regina,7.2644,-58.5077,79.61,83,68,7.7,GY,1704055393
324,natchez,31.5604,-91.4032,67.44,32,0,11.5,US,1704055393
325,mount isa,-20.7333,139.5,62.37,27,0,0.0,AU,1704055393
326,dong ha,16.8163,107.1003,69.84,96,70,0.49,VN,1704055394
327,shingu,33.7333,135.9833,45.97,71,1,9.8,JP,1704055394
328,ponta pora,-22.5361,-55.7256,82.31,69,0,10.36,BR,1704055384
329,midvagur,62.0511,-7.1939,45.43,87,100,37.98,FO,1704055395
330,argo,37.6333,22.7333,53.78,80,99,2.04,GR,1704055304
331,fort st. john,56.2499,-120.8529,40.89,56,20,12.66,CA,1704055396
332,kharkhorin,47.1975,102.8238,5.04,69,4,7.2,MN,1704055396
333,garden city,42.3256,-83.331,39.88,92,100,5.75,US,1704055012
334,pervomayskiy,53.2485,40.2871,28.22,90,100,15.68,RU,1704055397
335,homer,59.6425,-151.5483,30.09,80,100,8.05,US,1704055397
336,taltal,-25.4,-70.4833,69.55,70,28,7.87,CL,1704055398
337,langtang,9.1333,9.7833,76.89,21,1,6.06,NG,1704055398
338,gaalkacyo,6.7697,47.4308,71.28,77,20,12.95,SO,1704055398
339,lagkadas,40.75,23.0667,52.75,69,100,1.7,GR,1704055399
340,kizel,59.0471,57.6477,7.23,79,100,1.99,RU,1704055399
341,wynyard,-41.0,145.7167,59.41,80,100,7.38,AU,1704055399
342,cody,44.5263,-109.0565,41.22,52,0,0.0,US,1704055337
343,bayanhongor,46.7167,100.1167,-9.8,70,23,3.76,MN,1704055400
344,birjand,32.8663,59.2211,37.87,48,0,6.91,IR,1704055401
345,praia da vitoria,38.7333,-27.0667,61.75,88,20,7.92,PT,1704055401
346,sant antoni de portmany,38.9807,1.3036,59.97,79,0,5.01,ES,1704055402
347,mossel bay,-34.1831,22.146,66.13,86,24,12.06,ZA,1704055278
348,bodegraven,52.0825,4.75,48.02,87,100,11.01,NL,1704055402
349,sompeta,18.9333,84.6,66.36,81,2,4.85,IN,1704055403
350,puerto colombia,10.9878,-74.9547,87.89,76,33,20.76,CO,1704055403
351,hauterive,46.0901,3.4459,47.16,81,32,8.05,FR,1704055404
352,rizokarpaso,35.6,34.375,60.91,71,4,4.54,CY,1704055404
353,naze,28.3667,129.4833,58.12,61,96,16.15,JP,1704055137
354,lille,50.633,3.0586,48.9,71,100,19.57,FR,1704055227
355,al miqdadiyah,33.9786,44.9369,55.31,44,73,7.47,IQ,1704055405
356,urengoy,65.9667,78.3667,-13.52,100,100,7.29,RU,1704055406
357,douentza,14.9951,-2.9517,73.81,14,0,4.83,ML,1704055406
358,ciudad lazaro cardenas,17.9583,-102.2,81.14,57,46,8.66,MX,1704055406
359,yashkul',46.1711,45.3435,43.27,82,95,14.0,RU,1704055407
360,genhe,50.7833,121.5167,-1.1,100,100,1.68,CN,1704055407
361,carboneras,37.0015,-1.9213,55.31,61,100,2.01,ES,1704055408
362,yantzaza,-3.8278,-78.7594,79.61,95,100,1.77,EC,1704055408
363,tuttlingen,47.9833,8.8167,39.94,82,100,6.62,DE,1704055408
364,yanbu,24.0891,38.0637,71.64,53,0,9.22,SA,1704055409
365,bandarbeyla,9.4942,50.8122,76.8,72,8,20.29,SO,1704055409
366,saint-francois,46.4154,3.9054,44.04,85,0,8.05,FR,1704055410
367,brookings,44.3114,-96.7984,28.18,79,0,9.22,US,1704055410
368,quellon,-43.1167,-73.6167,59.74,71,100,8.01,CL,1704055410
369,tzaneen,-23.8332,30.1635,70.72,81,52,1.99,ZA,1704055411
370,chikwawa,-16.0335,34.8009,77.97,83,100,2.13,MW,1704055411
371,sola,-13.8833,167.55,82.35,79,99,17.36,VU,1704055412
372,kenai,60.5544,-151.2583,22.14,94,100,21.85,US,1704055412
373,kabinda,-6.1333,24.4833,67.51,95,100,2.91,CD,1704055413
374,aoulef,26.9667,1.0833,64.31,20,0,8.39,DZ,1704055413
375,bangassou,4.7413,22.8184,69.64,45,87,0.92,CF,1704055414
376,behbahan,30.5959,50.2417,60.37,70,3,3.0,IR,1704055376
377,myeik,12.4333,98.6,75.31,80,30,3.06,MM,1704055414
378,lao cai,22.4833,103.95,63.21,92,50,0.54,VN,1704055415
379,saint-pierre,-21.3393,55.4781,80.28,78,75,17.27,RE,1704055415
380,kavaratti,10.5669,72.642,82.4,78,100,15.88,IN,1704055416
381,salalah,17.0151,54.0924,75.29,73,20,3.44,OM,1704055416
382,barcelos,41.5388,-8.6151,51.85,81,100,2.24,PT,1704055416
383,touros,-5.1989,-35.4608,81.07,78,3,8.88,BR,1704055417
384,huarmey,-10.0681,-78.1522,76.35,75,27,12.28,PE,1704055417
385,makary,12.5717,14.4666,72.18,41,4,8.12,CM,1704055418
386,yankton,42.8711,-97.3973,26.85,74,20,14.97,US,1704055418
387,madison,34.7334,-86.5667,60.15,42,0,13.8,US,1704054971
388,hwange,-18.3693,26.5019,73.44,73,61,2.57,ZW,1704055419
389,rio grande,-32.035,-52.0986,75.31,63,100,10.25,BR,1704055419
390,anadyr,64.75,177.4833,12.7,48,0,6.71,RU,1704055420
391,cobram,-35.9167,145.65,68.63,56,36,14.72,AU,1704055420
392,kasongo-lunda,-6.4667,16.8167,70.77,98,100,0.78,CD,1704055420
393,akureyri,65.6835,-18.0878,26.53,86,100,5.75,IS,1704055421
394,abaza,52.655,90.0928,22.96,84,100,7.4,RU,1704055421
395,staraya russa,57.9944,31.3608,5.68,97,81,5.95,RU,1704055421
396,al marj,32.488,20.8317,54.5,81,99,4.94,LY,1704055422
397,kourou,5.1552,-52.6478,86.05,73,97,4.79,GF,1704055422
398,caleta de carquin,-11.0925,-77.6267,75.36,75,66,12.5,PE,1704055423
399,lubango,-14.9172,13.4925,66.06,82,75,4.61,AO,1704055423
400,el calafate,-50.3408,-72.2768,64.62,51,96,13.58,AR,1704055424
401,usinsk,65.9939,57.5281,-11.92,98,95,8.99,RU,1704055230
402,buala,-8.145,159.5921,82.99,75,33,2.21,SB,1704055424
403,monywa,22.1167,95.1333,63.28,71,0,5.1,MM,1704055425
404,san antonio de pale,-1.4014,5.6325,81.45,79,93,7.54,GQ,1704055425
405,ghadamis,30.1337,9.5007,56.88,40,0,4.65,LY,1704055251
406,owen sound,44.5672,-80.9435,31.32,95,100,5.01,CA,1704055361
407,ketchikan,55.3422,-131.6461,40.98,87,100,0.0,US,1704055134
408,borazjan,29.2666,51.2159,63.84,68,0,1.48,IR,1704055427
409,oodweyne,9.4092,45.064,66.76,43,36,7.36,SO,1704055427
410,bikenibeu village,1.3673,173.1241,84.16,79,75,4.61,KI,1704055428
411,tralee,52.2704,-9.7026,44.96,78,36,21.68,IE,1704055428
412,tadmait,36.7441,3.9005,54.09,58,96,1.07,DZ,1704055428
413,katabu,-4.9333,122.5167,76.77,91,26,2.15,ID,1704055272
414,aulendorf,47.95,9.6333,39.34,92,100,8.01,DE,1704055429
415,chibougamau,49.9168,-74.3659,15.42,86,100,6.91,CA,1704055429
416,ancud,-41.8697,-73.8203,59.99,78,100,10.58,CL,1704055223
417,santa ana,33.7456,-117.8678,63.0,85,100,6.91,US,1704055430
418,capinota,-17.7167,-66.2333,72.81,74,98,2.26,BO,1704055430
419,zavety il'icha,49.0294,140.2494,-5.84,92,2,4.94,RU,1704055431
420,sechura,-5.5569,-80.8222,81.95,59,77,14.38,PE,1704055431
421,port lincoln,-34.7333,135.8667,60.87,82,100,11.81,AU,1704055188
422,lospalos,-8.5186,127.0025,74.1,92,99,1.41,TL,1704055432
423,minas de marcona,-15.2119,-75.1103,69.93,64,44,16.55,PE,1704055433
424,at-bashi,41.1702,75.8106,5.32,61,6,2.73,KG,1704055433
425,bacsalmas,46.1265,19.3326,45.25,79,41,8.52,HU,1704055433
426,berezovyy,51.6667,135.7,-11.88,87,21,3.2,RU,1704055434
427,riyadh,24.6877,46.7219,64.54,62,74,11.97,SA,1704055182
428,new norfolk,-42.7826,147.0587,60.93,76,100,1.5,AU,1704055435
429,san juan,-31.5375,-68.5364,96.01,19,0,17.9,AR,1704055382
430,zigong,29.3416,104.7769,50.56,80,100,1.01,CN,1704055435
431,wanning,18.8003,110.3967,69.82,87,52,5.32,CN,1704055258
432,quepos,9.4236,-84.1652,83.21,73,11,4.12,CR,1704055436
433,shenjiamen,29.9576,122.298,46.0,65,48,12.17,CN,1704055436
434,tuba city,36.135,-111.2399,46.38,41,0,4.0,US,1704055437
435,richards bay,-28.783,32.0377,73.76,92,44,7.74,ZA,1704055229
436,puerto deseado,-47.7503,-65.8938,58.39,60,18,15.61,AR,1704055290
437,cooper's town,26.8667,-77.5167,65.95,59,2,11.34,BS,1704055438
438,nenjiang,49.1833,125.2167,2.03,83,100,11.45,CN,1704055438
439,reggane,26.7158,0.1714,64.94,20,0,7.18,DZ,1704055439
440,taulaga,-11.0553,-171.0883,83.19,78,100,10.67,AS,1704055439
441,murun-kuren,49.6342,100.1625,-2.69,80,7,2.44,MN,1704055440
442,mangrol,21.1167,70.1167,69.51,46,0,9.57,IN,1704055440
443,namibe,-15.1961,12.1522,72.09,75,11,9.17,AO,1704055440
444,mhamid,29.82,-5.72,59.11,19,8,5.35,MA,1704055441
445,wuxue,29.8506,115.5525,42.22,66,82,5.55,CN,1704055441
446,melilla,35.2937,-2.9383,61.18,63,0,3.44,ES,1704055441
447,dzhangala,49.2167,50.3333,41.41,63,100,16.67,KZ,1704055442
448,mili,6.0815,171.735,82.33,80,25,17.92,MH,1704055442
449,praia,14.9215,-23.5087,75.74,73,40,12.66,CV,1704055273
450,kismayo,-0.3582,42.5454,80.73,74,55,12.21,SO,1704055443
451,boone,39.0334,-92.3335,39.38,70,91,5.99,US,1704055013
452,faranah,10.0404,-10.7434,75.0,15,8,3.91,GN,1704055444
453,crucecita,-28.95,-58.9833,81.32,59,44,8.32,AR,1704055444
454,cerkes,40.8116,32.8936,37.81,88,52,3.58,TR,1704055445
455,sao gabriel,-30.3364,-54.32,74.57,64,97,6.22,BR,1704055445
456,kasimov,54.9411,41.3953,19.38,90,100,13.27,RU,1704055445
457,aricak,38.5639,40.1347,38.53,59,50,4.56,TR,1704055446
458,hotan,37.0997,79.9269,29.19,46,0,3.62,CN,1704055446
459,mtama,-10.3,39.3667,76.06,96,97,2.64,TZ,1704055446
460,morant bay,17.8815,-76.4093,83.82,87,95,15.77,JM,1704055447
461,shaydon,40.6747,70.346,34.59,46,40,5.91,TJ,1704055447
462,muli,2.9167,73.5667,79.3,75,100,3.85,MV,1704055448
463,tangalle,6.024,80.7911,76.37,87,35,11.21,LK,1704055448
464,abu al matamir,30.9102,30.1744,59.49,81,1,2.8,EG,1704055449
465,hithadhoo,-0.6,73.0833,80.98,79,100,10.89,MV,1704055449
466,pacific grove,36.6177,-121.9166,57.42,82,0,3.0,US,1704055450
467,daru,-9.0763,143.2092,81.27,77,88,7.99,PG,1704055450
468,chulakkurgan,43.765,69.1814,32.09,54,47,3.89,KZ,1704055451
469,baganga,7.5739,126.56,78.37,88,32,6.44,PH,1704055451
470,tashla,51.7716,52.7427,34.9,89,100,13.44,RU,1704055451
471,boguchany,58.3814,97.4531,21.85,86,100,8.99,RU,1704055452
472,magadan,59.5667,150.8,-15.63,81,55,7.09,RU,1704055187
473,tileagd,47.0667,22.2,49.55,75,19,7.23,RO,1704055453
474,yinchuan,38.4681,106.2731,26.71,51,99,3.96,CN,1704055453
475,miracema do tocantins,-9.5618,-48.3967,84.04,64,100,6.06,BR,1704055453
476,lincheng,19.9078,109.6858,69.93,83,99,8.88,CN,1704055454
477,bardai,11.65,7.2333,67.91,21,6,8.19,NG,1704055454
478,rimouski,48.4488,-68.524,26.28,62,81,12.73,CA,1704055366
479,gebeit,21.0667,36.3167,61.83,68,0,4.63,SD,1704055459
480,gondia,21.45,80.2,62.19,61,0,3.83,IN,1704055228
481,uglegorsk,49.0833,142.0333,1.6,79,52,6.4,RU,1704055460
482,garhwa,24.1833,83.8167,54.07,64,0,0.98,IN,1704055460
483,puerto armuelles,8.2833,-82.8667,87.78,62,56,1.01,PA,1704055461
484,monrovia,6.3005,-10.7969,82.17,85,38,8.63,LR,1704055300
485,khasab,26.1799,56.2477,74.12,67,27,6.26,OM,1704055462
486,rethel,49.5,4.3333,48.07,76,99,19.33,FR,1704055462
487,chernyshevskiy,63.0128,112.4714,4.66,99,100,3.06,RU,1704055462
488,flying fish cove,-10.4217,105.6791,80.28,89,100,9.22,CX,1704055463
489,tommot,58.9564,126.2925,4.69,98,100,1.72,RU,1704055463
490,mira,45.4358,12.1348,47.12,93,100,6.31,IT,1704055463
491,holualoa,19.6228,-155.9522,77.25,69,20,5.75,US,1704055464
492,bandar-e lengeh,26.5579,54.8807,73.18,67,3,8.66,IR,1704055464
493,kruisfontein,-34.0033,24.7314,64.89,93,100,14.03,ZA,1704055248
494,al hawatah,13.4167,34.6333,78.46,25,0,8.99,SD,1704055465
495,berdigestyakh,62.0989,126.6992,-17.32,98,100,5.75,RU,1704055465
496,saldanha,-33.0117,17.9442,78.85,67,38,12.93,ZA,1704055466
497,carqueiranne,43.0953,6.073,53.17,70,0,19.57,FR,1704055466
498,auki,-8.7676,160.7034,81.59,83,33,2.75,SB,1704055466
499,n'dalatando,-9.2978,14.9116,68.36,88,47,3.04,AO,1704055467
500,usakos,-22.0,15.6,70.03,34,0,4.07,NA,1704055467
501,glace bay,46.1969,-59.957,33.78,86,100,10.36,CA,1704055467
502,queenstown,-31.8976,26.8753,62.28,82,82,3.96,ZA,1704055359
503,meadow lake,34.8014,-106.5436,51.96,30,0,3.89,US,1704055260
504,ewo,-0.8725,14.8206,78.84,68,100,4.27,CG,1704055469
505,molde,62.7375,7.1591,30.04,64,92,10.36,NO,1704055469
506,moravske budejovice,49.0521,15.8086,37.49,89,100,2.89,CZ,1704055469
507,nchelenge,-9.3451,28.734,69.64,88,99,1.41,ZM,1704055470
508,el porvenir,13.7617,-87.3458,74.53,48,2,8.14,HN,1704055275
509,gorom-gorom,14.4439,-0.2361,75.52,14,1,8.88,BF,1704055471
510,kosh-agach,50.0,88.6667,-5.69,84,100,3.0,RU,1704055471
511,karratha,-20.7377,116.8463,90.5,25,6,8.16,AU,1704055471
512,laguna,38.421,-121.4238,57.76,84,100,3.44,US,1704055472
513,ponta delgada,37.7333,-25.6667,65.19,77,75,5.75,PT,1704055229
514,kangding,30.0513,101.9603,36.7,37,60,3.65,CN,1704055473
515,hulan ergi,47.2042,123.6333,8.44,81,100,16.24,CN,1704055473
516,kyzyl-mazhalyk,51.1333,90.6,-1.08,88,73,1.01,RU,1704055473
517,zhanaozen,43.3,52.8,40.17,50,100,2.01,KZ,1704055278
518,les avirons,-21.2418,55.3394,77.09,78,75,17.27,RE,1704055474
519,port alfred,-33.5906,26.891,65.17,96,100,1.01,ZA,1704055475
520,dryden,49.7833,-92.7503,10.69,92,40,2.3,CA,1704055264
521,jaleshwar,26.6471,85.8008,55.67,64,0,4.97,NP,1704055475
522,lerwick,60.1545,-1.1494,44.6,90,100,38.54,GB,1704055476
523,timimoun,29.2639,0.231,59.38,29,0,4.61,DZ,1704055476
524,kansk,56.2017,95.7175,19.96,83,100,14.25,RU,1704055477
525,gillette,44.2911,-105.5022,41.92,54,0,18.41,US,1704055477
526,fada,9.5667,8.3,71.06,25,2,5.5,NG,1704055477
527,paraiso,9.8383,-83.8656,77.16,76,13,6.17,CR,1704055317
528,strzelce krajenskie,52.8773,15.5298,39.36,89,100,7.87,PL,1704055478
529,cabrobo,-8.5142,-39.31,89.35,41,100,2.98,BR,1704055479
530,rio preto da eva,-2.6994,-59.6997,85.87,72,21,2.19,BR,1704055479
531,fushun,41.8558,123.9233,-4.29,98,93,2.91,CN,1704055480
532,gadani,25.1185,66.7299,62.82,47,0,2.19,PK,1704055480
533,hard bargain,26.3167,-77.5667,66.96,54,0,10.02,BS,1704055480
534,wanganui,-39.9333,175.05,62.6,83,5,13.0,NZ,1704055481
535,qamdo,31.1667,97.2333,13.23,45,29,1.95,CN,1704055481
536,tremonton,41.7119,-112.1655,46.42,70,0,5.01,US,1704055481
537,parthenay,46.6667,-0.4167,44.94,89,23,11.77,FR,1704055482
538,paita,-5.0892,-81.1144,76.71,73,98,18.07,PE,1704055482
539,goundam,16.4145,-3.6708,72.48,12,3,8.86,ML,1704055483
540,howard springs,-12.497,131.047,85.91,84,100,3.4,AU,1704055483
541,broadstairs,51.3591,1.4394,47.79,75,100,11.01,GB,1704055281
542,hastings,50.8552,0.5729,48.97,32,84,33.26,GB,1704055484
543,tevriz,57.509,72.4042,-15.99,100,84,0.72,RU,1704055484
544,cam ranh,11.9214,109.1591,76.96,73,40,10.36,VN,1704055213
545,rusape,-18.5278,32.1284,63.01,91,96,1.16,ZW,1704055485
546,beloyarskiy,63.7119,66.6722,-26.0,98,61,5.01,RU,1704055485
547,machico,32.7,-16.7667,67.01,84,40,2.3,PT,1704055486
548,las tablas,7.7667,-80.2833,85.12,70,66,15.05,PA,1704055486
549,necochea,-38.5473,-58.7368,75.97,47,100,10.0,AR,1704055487
550,la'ie,21.6477,-157.9253,81.05,63,0,1.01,US,1704055487
551,guerrero negro,27.9769,-114.0611,65.57,53,100,12.66,MX,1704055307
552,lynn haven,30.2455,-85.6483,61.09,63,0,9.22,US,1704055488
553,valle vista,33.7478,-116.8934,60.19,72,100,1.01,US,1704055448
554,mufumbwe,-13.6833,24.8,64.06,96,97,4.32,ZM,1704055488
555,vengerovo,55.6848,76.7471,-0.69,98,81,7.23,RU,1704055489
556,panama city beach,30.1766,-85.8055,62.98,62,0,9.22,US,1704055332
557,diu,20.7141,70.9822,70.61,43,0,6.98,IN,1704055489
