City_ID,City,Lat,Lng,Max Temp,Humidity,Cloudiness,Wind Speed,Country,Date
0,kodiak,57.79,-152.4072,45.91,93,100,13.8,US,1698509507
1,waitangi,-43.9535,-176.5597,48.81,83,35,5.99,NZ,1698509507
2,sawakin,19.1059,37.3321,86.25,67,22,14.12,SD,1698509508
3,port-aux-francais,-49.35,70.2167,41.29,98,100,17.76,TF,1698509508
4,fortuna,40.5982,-124.1573,40.12,100,40,9.22,US,1698509509
5,nova sintra,14.8667,-24.7167,75.4,77,49,19.95,CV,1698509509
6,fale old settlement,-9.3852,-171.2468,81.95,76,43,6.24,TK,1698509509
7,edinburgh of the seven seas,-37.0676,-12.3116,58.06,91,100,13.22,SH,1698509510
8,hasaki,35.7333,140.8333,55.8,68,7,11.68,JP,1698509510
9,nagato,34.3833,131.2,61.54,65,63,13.24,JP,1698509510
10,grytviken,-54.2811,-36.5092,29.86,95,100,6.55,GS,1698509511
11,winnemucca,40.973,-117.7357,30.25,59,0,13.8,US,1698509445
12,tinajo,29.0788,-13.7081,72.48,73,20,16.11,ES,1698509511
13,blackmans bay,-43.0167,147.3167,50.74,70,47,1.99,AU,1698509512
14,hermanus,-34.4187,19.2345,58.62,65,85,18.9,ZA,1698509512
15,aasiaat,68.7098,-52.8699,20.61,90,97,10.58,GL,1698509512
16,adamstown,-25.066,-130.1015,72.79,80,100,11.97,PN,1698509513
17,bredasdorp,-34.5322,20.0403,57.51,62,91,13.51,ZA,1698509513
18,del rio,29.3627,-100.8968,77.02,87,100,16.11,US,1698509514
19,box elder,41.5005,-112.8764,35.76,55,0,16.31,US,1698509514
20,enewetak,11.3474,162.3373,82.24,75,71,7.07,MH,1698509514
21,isangel,-19.55,169.2667,74.3,88,52,8.66,VU,1698509515
22,ushuaia,-54.8,-68.3,47.82,42,75,5.75,AR,1698509375
23,ribeira grande,38.5167,-28.7,66.6,63,40,17.27,PT,1698509515
24,gaspe,48.8334,-64.4819,60.6,92,100,6.55,CA,1698509412
25,zhosaly,45.4878,64.0781,55.76,56,51,3.74,KZ,1698509363
26,bay roberts,47.5999,-53.2648,56.14,99,100,3.0,CA,1698509517
27,margaret river,-33.95,115.0667,58.66,73,100,10.8,AU,1698509517
28,solok,-0.7918,100.6593,76.15,89,34,1.12,ID,1698509517
29,port arthur,38.8,121.2667,57.42,75,1,9.89,CN,1698509518
30,zouerate,22.7187,-12.4521,92.75,18,0,4.7,MR,1698509518
31,bilibino,68.0546,166.4372,-6.12,98,61,1.36,RU,1698509519
32,corinto,37.9407,22.9573,76.89,72,0,5.1,GR,1698509519
33,punta arenas,-53.15,-70.9167,42.12,48,95,3.2,CL,1698509520
34,bodden town,19.2833,-81.25,87.8,67,40,16.11,KY,1698509520
35,copala,16.65,-98.9833,82.13,75,99,3.31,MX,1698509521
36,sitka,57.0531,-135.33,42.69,81,75,4.61,US,1698509312
37,port lincoln,-34.7333,135.8667,50.34,77,29,5.37,AU,1698509522
38,san fernando de apure,7.8878,-67.4724,90.01,59,98,7.11,VE,1698509238
39,ust-nera,64.5667,143.2,0.48,99,100,3.29,RU,1698509523
40,port alfred,-33.5906,26.891,56.17,94,80,5.99,ZA,1698509523
41,ilulissat,69.2167,-51.1,24.82,80,75,9.22,GL,1698509524
42,orsa,54.5153,30.4053,35.17,98,100,11.18,BY,1698509524
43,daru,-9.0763,143.2092,77.31,90,99,15.01,PG,1698509421
44,cozumel,20.5083,-86.9458,86.07,74,40,17.27,MX,1698509399
45,nadym,65.5333,72.5167,14.31,95,30,9.6,RU,1698509525
46,kijang,35.2442,129.2139,59.07,69,12,8.57,KR,1698509526
47,pariaman,-0.619,100.12,80.65,89,45,3.29,ID,1698509526
48,polyarnyy,69.1989,33.4478,25.12,86,100,3.83,RU,1698509526
49,cruzeiro do sul,-29.5128,-51.9853,78.53,72,100,4.85,BR,1698509527
50,alva,56.1528,-3.8051,53.33,86,94,8.01,GB,1698509527
51,isafjordur,66.0755,-23.124,37.44,81,20,2.3,IS,1698509272
52,tomatlan,19.9333,-105.25,82.11,77,15,0.67,MX,1698509528
53,port macquarie,-31.4333,152.9167,52.9,87,66,5.35,AU,1698509334
54,yemetsk,63.4721,41.7941,25.5,90,100,7.34,RU,1698509531
55,talcahuano,-36.7167,-73.1167,55.08,100,100,17.27,CL,1698509533
56,iqaluit,63.7506,-68.5145,13.73,78,20,8.05,CA,1698509534
57,nuku'alofa,-21.1333,-175.2,71.94,88,40,11.5,TO,1698509534
58,ulysses,37.5814,-101.3552,35.89,69,100,12.66,US,1698509534
59,holualoa,19.6228,-155.9522,71.44,78,0,8.99,US,1698509535
60,uturoa,-16.7333,-151.4333,78.57,80,99,10.2,PF,1698509536
61,puerto natales,-51.7236,-72.4875,39.65,81,75,3.44,CL,1698509536
62,el bayadh,33.6832,1.0193,70.18,27,100,14.81,DZ,1698509536
63,ancud,-41.8697,-73.8203,47.34,74,97,26.8,CL,1698509537
64,anyang,36.0994,114.3289,64.22,40,0,2.51,CN,1698509537
65,ust-tsilma,65.441,52.1498,21.61,89,100,5.99,RU,1698509538
66,port elizabeth,-33.918,25.5701,55.31,86,88,5.99,ZA,1698509538
67,wynyard,-41.0,145.7167,43.34,91,30,4.45,AU,1698509539
68,albany,42.6001,-73.9662,74.95,68,26,10.33,US,1698509325
69,ta`u,-14.2336,-169.5144,79.34,83,52,16.06,AS,1698509541
70,port mathurin,-19.6833,63.4167,76.42,78,10,8.7,MU,1698509541
71,invercargill,-46.4,168.35,44.02,94,37,4.0,NZ,1698509246
72,vorgashor,67.5833,63.95,9.0,97,100,4.0,RU,1698509542
73,vadso,70.0744,29.7487,30.36,80,100,11.5,NO,1698509543
74,vizinga,61.0749,50.1031,25.84,68,100,9.04,RU,1698509544
75,ambon,-3.6954,128.1814,77.88,95,20,9.22,ID,1698509545
76,san patricio,28.017,-97.5169,87.75,64,8,13.62,US,1698509545
77,loukhi,66.0764,33.0381,24.76,82,29,3.06,RU,1698509545
78,nar'yan-mar,67.6713,53.087,10.11,90,73,8.01,RU,1698509546
79,wailua homesteads,22.0669,-159.378,70.23,77,0,9.22,US,1698509546
80,bethel,41.3712,-73.414,78.55,62,0,9.22,US,1698509263
81,college,64.8569,-147.8028,15.46,85,40,3.44,US,1698509548
82,yellowknife,62.456,-114.3525,30.42,100,75,5.99,CA,1698509401
83,arraial do cabo,-22.9661,-42.0278,76.86,88,75,20.71,BR,1698509549
84,hammerfest,70.6634,23.6821,32.45,80,100,3.44,NO,1698509303
85,vilyuchinsk,52.9306,158.4028,38.93,74,100,4.81,RU,1698509550
86,badger,64.8,-147.5333,15.37,87,0,3.44,US,1698509550
87,tuscaloosa,33.2098,-87.5692,79.05,67,0,3.44,US,1698509366
88,tyukhtet,56.5389,89.3011,24.98,87,99,9.22,RU,1698509551
89,brooks,50.5834,-111.8851,21.18,66,100,4.61,CA,1698509551
90,stanley,54.868,-1.6985,48.78,93,93,7.7,GB,1698509552
91,hami,42.8,93.45,54.18,37,68,8.23,CN,1698509552
92,hays,30.0502,-98.0336,79.38,87,100,5.01,US,1698509552
93,bonthe,7.5264,-12.505,84.52,67,55,9.04,SL,1698509553
94,kargasok,59.0556,80.8572,11.97,97,64,5.01,RU,1698509553
95,alvand,36.3187,49.1678,57.63,32,0,5.41,IR,1698509554
96,lihue,21.9789,-159.3672,70.84,77,0,9.22,US,1698509412
97,klyuchi,52.2667,79.1667,29.62,53,100,7.65,RU,1698509554
98,susuman,62.7833,148.1667,0.99,99,90,1.01,RU,1698509555
99,papatowai,-46.5619,169.4708,40.5,91,30,6.51,NZ,1698509555
100,jalai nur,49.45,117.7,42.82,41,99,7.67,CN,1698509556
101,thunder bay,48.4001,-89.3168,35.51,69,75,10.36,CA,1698509556
102,coahuayana de hidalgo,18.7,-103.6583,84.85,72,93,1.72,MX,1698509556
103,tazovsky,67.4667,78.7,7.39,91,66,11.88,RU,1698509557
104,ciudad lazaro cardenas,17.9583,-102.2,82.56,73,97,1.88,MX,1698509364
105,akureyri,65.6835,-18.0878,37.33,70,20,0.0,IS,1698509557
106,happy valley-goose bay,53.3168,-60.3315,34.11,93,100,4.61,CA,1698509364
107,udachny,66.4167,112.4,10.45,84,90,8.88,RU,1698509558
108,paraiso,9.8383,-83.8656,76.42,72,99,2.86,CR,1698509559
109,bogorodsk,56.1033,43.5158,31.42,100,100,8.99,RU,1698509559
110,west island,-12.1568,96.8225,78.78,73,100,20.71,CC,1698509559
111,mount pearl,47.5166,-52.7813,54.95,97,100,17.27,CA,1698509560
112,severo-yeniseyskiy,60.3725,93.0408,15.58,81,100,15.99,RU,1698509560
113,awjilah,29.1081,21.2869,81.66,28,24,9.13,LY,1698509560
114,xai-xai,-25.0519,33.6442,75.22,72,31,11.3,MZ,1698509561
115,saipan,15.1355,145.701,83.1,89,20,6.91,MP,1698509561
116,chibougamau,49.9168,-74.3659,35.22,80,75,12.66,CA,1698509562
117,chonchi,-42.6128,-73.8092,51.01,77,86,13.62,CL,1698509562
118,el calafate,-50.3408,-72.2768,40.06,75,99,7.94,AR,1698509562
119,northam,51.0333,-4.2167,58.66,91,72,17.54,GB,1698509563
120,olonkinbyen,70.9221,-8.7187,30.4,78,91,6.33,SJ,1698509563
121,hithadhoo,-0.6,73.0833,80.78,84,43,17.63,MV,1698509563
122,alofi,-19.0595,-169.9187,74.48,68,77,18.5,NU,1698509564
123,laguna,38.421,-121.4238,52.97,83,0,6.91,US,1698509564
124,at taj,24.2049,23.2857,81.75,18,43,8.61,LY,1698509565
125,port blair,11.6667,92.75,81.77,77,40,1.61,IN,1698509565
126,east london,-33.0153,27.9116,58.14,94,100,19.57,ZA,1698509566
127,puerto ayora,-0.7393,-90.3518,84.16,87,100,8.99,EC,1698509566
128,cabo san lucas,22.8909,-109.9124,79.52,67,0,3.44,MX,1698509353
129,bengkulu,-3.8004,102.2655,75.51,92,67,4.79,ID,1698509567
130,alice springs,-23.7,133.8833,53.15,14,54,6.91,AU,1698509522
131,luza,60.6308,47.2512,26.83,59,99,10.33,RU,1698509568
132,weno,7.4515,151.8468,80.55,94,100,0.0,FM,1698509568
133,praia da vitoria,38.7333,-27.0667,67.75,70,100,21.65,PT,1698509569
134,rabo de peixe,37.8,-25.5833,66.97,99,40,14.97,PT,1698509569
135,tuxtepec,18.1,-96.1167,76.87,87,100,4.54,MX,1698509514
136,ambovombe,-25.1667,46.0833,75.72,77,0,15.26,MG,1698509570
137,el colomo,19.05,-104.25,84.18,67,45,0.67,MX,1698509570
138,vorkuta,67.5,64.0,9.55,97,100,4.45,RU,1698509570
139,north bay,46.3168,-79.4663,45.95,73,69,14.36,CA,1698509413
140,jamaame,0.0697,42.745,80.33,80,8,8.79,SO,1698509431
141,san antonio de pale,-1.4014,5.6325,79.59,79,9,10.04,GQ,1698509571
142,jamestown,42.097,-79.2353,56.52,93,100,8.05,US,1698509546
143,coron,11.9986,120.2043,78.48,87,33,3.29,PH,1698509572
144,el granada,37.5027,-122.4694,55.22,84,0,4.61,US,1698509573
145,vila franca do campo,37.7167,-25.4333,67.87,99,93,10.58,PT,1698509573
146,tsiombe,-25.3,45.4833,75.36,78,0,10.13,MG,1698509573
147,lucapa,-8.4192,20.7447,77.41,66,22,2.28,AO,1698509574
148,afaahiti,-17.75,-149.2833,73.27,79,100,5.7,PF,1698509574
149,keflavik,64.0049,-22.5624,44.51,65,0,0.0,IS,1698509574
150,papao,-17.75,-149.55,74.88,76,100,5.88,PF,1698509575
151,port hedland,-20.3167,118.5667,78.85,100,40,18.41,AU,1698509575
152,ouadda,8.0777,22.4007,72.57,89,87,4.0,CF,1698509576
153,egilsstadir,65.2653,-14.3948,35.51,87,20,5.75,IS,1698509576
154,tres arroyos,-38.3739,-60.2798,84.92,20,42,16.28,AR,1698509576
155,nemuro,43.3236,145.575,52.9,75,33,4.45,JP,1698509577
156,qaqortoq,60.7167,-46.0333,33.73,72,19,1.59,GL,1698509577
157,dahab,28.501,34.5134,82.87,41,42,8.9,EG,1698509577
158,richards bay,-28.783,32.0377,66.85,90,100,9.26,ZA,1698509476
159,pemba,-12.974,40.5178,81.3,83,20,11.5,MZ,1698509578
160,raposa,-6.5167,-44.1833,101.08,22,14,7.7,BR,1698509567
161,salalah,17.0151,54.0924,82.49,74,0,4.61,OM,1698509497
162,vung tau,10.346,107.0843,82.09,82,76,13.22,VN,1698509579
163,pacific grove,36.6177,-121.9166,55.42,85,0,5.01,US,1698509580
164,whitehorse,60.7161,-135.0538,18.37,92,100,9.22,CA,1698509580
165,tshabong,-26.05,22.45,83.41,11,0,19.28,BW,1698509580
166,kuraymah,18.55,31.85,93.78,13,17,4.88,SD,1698509581
167,gamba,-2.65,10.0,81.01,78,48,8.61,GA,1698509581
168,lodja,-3.4833,23.4333,76.62,82,68,2.91,CD,1698509581
169,fort mcmurray,56.7268,-111.381,22.59,86,100,4.61,CA,1698509582
170,hamilton,39.1834,-84.5333,61.0,94,100,8.05,US,1698509299
171,mili,6.0815,171.735,83.23,73,95,7.92,MH,1698509583
172,volnovakha,47.601,37.4967,58.53,53,0,21.74,UA,1698509583
173,motueka,-41.1333,173.0167,44.1,88,11,4.85,NZ,1698509584
174,tual,-5.6667,132.75,82.04,80,86,5.82,ID,1698509584
175,hirara,24.8,125.2833,76.03,62,68,12.86,JP,1698509585
176,nogliki,51.8333,143.1667,36.34,73,42,7.0,RU,1698509551
177,bavly,54.393,53.2602,31.28,53,100,7.54,RU,1698509585
178,kyzyl-suu,42.3414,78.0056,46.87,57,10,5.53,KG,1698509586
179,nantucket,41.2835,-70.0995,73.54,77,0,16.11,US,1698509554
180,sos'va,59.1766,61.8558,26.06,65,45,3.0,RU,1698509587
181,mooloolaba,-26.6833,153.1167,62.06,86,86,3.0,AU,1698509587
182,khandyga,62.6667,135.6,4.23,94,84,3.58,RU,1698509587
183,saldanha,-33.0117,17.9442,64.45,63,0,32.91,ZA,1698509588
184,bagula,23.3167,88.65,75.58,57,44,7.23,IN,1698509588
185,kyzylorda,44.8528,65.5092,60.82,63,75,4.47,KZ,1698509589
186,le port,-20.9373,55.2919,77.0,99,21,3.4,RE,1698509589
187,fort st. john,56.2499,-120.8529,21.09,73,75,3.44,CA,1698509590
188,atafu village,-8.5421,-172.5159,82.15,74,54,4.54,TK,1698509590
189,constantia,44.1833,28.65,66.88,45,49,4.18,RO,1698509591
190,la passe,45.5549,-0.8967,64.63,69,100,23.8,FR,1698509591
191,sola,-13.8833,167.55,78.84,79,68,4.81,VU,1698509592
192,aykhal,66.0,111.5,5.0,95,86,10.67,RU,1698509592
193,jutai,-5.1833,-68.9,98.64,38,90,4.03,BR,1698509593
194,flying fish cove,-10.4217,105.6791,78.48,83,100,11.5,CX,1698509593
195,algona,43.07,-94.233,29.16,93,75,11.5,US,1698509593
196,melipilla,-33.7,-71.2167,68.41,48,100,7.11,CL,1698509524
197,minab,27.1467,57.0801,84.69,53,2,5.35,IR,1698509594
198,georgetown,5.4112,100.3354,80.53,94,20,3.44,MY,1698509305
199,nishinoomote,30.7333,131.0,69.67,56,35,11.45,JP,1698509595
200,ca mau,9.1769,105.15,77.2,92,54,1.5,VN,1698509596
201,kemi,65.8596,24.8228,24.57,86,100,6.91,FI,1698509596
202,tabas,33.5959,56.9244,77.9,27,91,3.42,IR,1698509597
203,tiksi,71.6872,128.8694,7.25,92,100,5.39,RU,1698509597
204,kursenai,55.985,22.9189,34.05,82,100,4.68,LT,1698509597
205,sines,37.9562,-8.8698,70.29,77,14,8.01,PT,1698509598
206,magadan,59.5667,150.8,27.0,76,92,6.58,RU,1698509598
207,insar,53.8653,44.3738,38.57,98,100,16.28,RU,1698509599
208,zakamensk,50.3741,103.2863,25.29,79,62,3.04,RU,1698509599
209,susanville,40.4163,-120.653,32.92,61,0,7.0,US,1698509576
210,anadyr,64.75,177.4833,34.3,100,100,11.18,RU,1698509600
211,alto barinas,8.5931,-70.2261,90.68,51,70,6.49,VE,1698509600
212,thompson,55.7435,-97.8558,21.36,100,100,3.44,CA,1698509601
213,zhezqazghan,47.7833,67.7667,42.76,91,100,9.15,KZ,1698509601
214,utrik,11.2278,169.8474,83.17,74,86,17.36,MH,1698509601
215,djibo,14.1022,-1.6306,97.81,14,100,2.46,BF,1698509602
216,carnarvon,-24.8667,113.6333,68.54,72,6,24.38,AU,1698509602
217,howrah,22.5892,88.3103,78.8,73,40,3.44,IN,1698509603
218,iskateley,67.6803,53.1512,10.02,90,72,8.01,RU,1698509603
219,amga,60.8953,131.9608,9.91,96,82,3.09,RU,1698509604
220,cidreira,-30.1811,-50.2056,73.51,73,100,13.47,BR,1698509604
221,bereket,39.2446,55.5154,73.58,43,3,11.05,TM,1698509605
222,beloyarsk,53.4461,83.9048,30.06,82,4,3.13,RU,1698509476
223,tralee,52.2704,-9.7026,53.85,82,40,6.91,IE,1698509605
224,nabire,-3.3667,135.4833,76.48,91,100,4.0,ID,1698509606
225,hawaiian paradise park,19.5933,-154.9731,70.03,85,40,6.91,US,1698509606
226,st. john's,47.5649,-52.7093,55.78,98,100,17.27,CA,1698509544
227,greymouth,-42.4667,171.2,42.44,91,59,4.43,NZ,1698509607
228,longyearbyen,78.2186,15.6401,26.44,86,75,6.91,SJ,1698509608
229,colonia,50.9333,6.95,56.97,78,100,9.22,DE,1698509601
230,naqadeh,36.9553,45.388,62.94,45,6,5.39,IR,1698509608
231,al bayda,32.7627,21.7551,66.45,64,0,4.81,LY,1698509609
232,souillac,-20.5167,57.5167,75.58,88,40,2.3,MU,1698509609
233,mejit,10.2753,170.8646,83.43,73,83,17.9,MH,1698509610
234,sisimiut,66.9395,-53.6735,24.62,77,78,10.13,GL,1698509610
235,kayangel,8.0823,134.7173,82.83,71,100,2.71,PW,1698509611
236,aconibe,1.2968,10.9369,76.66,84,90,1.36,GQ,1698509611
237,manokwari,-0.8667,134.0833,77.67,84,100,5.01,ID,1698509612
238,xining,36.6167,101.7667,45.61,43,6,0.2,CN,1698509612
239,caleta de carquin,-11.0925,-77.6267,70.95,75,97,12.53,PE,1698509613
240,sao vicente,-23.9631,-46.3919,91.58,65,96,4.7,BR,1698509355
241,brookings,44.3114,-96.7984,25.12,87,100,8.05,US,1698509314
242,nacala,-14.5428,40.6728,79.05,85,1,9.93,MZ,1698509614
243,swift current,50.2834,-107.8014,16.41,81,97,10.4,CA,1698509422
244,port saint john's,-31.6229,29.5448,60.26,90,100,14.97,ZA,1698509615
245,kalmunai,7.4167,81.8167,80.65,76,97,2.64,LK,1698509615
246,newman,37.3138,-121.0208,50.25,48,63,3.0,US,1698509616
247,fakenham,52.83,0.8477,55.27,79,61,1.99,GB,1698509616
248,fristad,65.2,16.7167,18.82,98,23,1.54,SE,1698509616
249,ugoofaaru,5.6667,73.0,82.9,74,31,8.48,MV,1698509617
250,kapuskasing,49.4169,-82.4331,28.4,74,100,12.66,CA,1698509617
251,nanning,22.8167,108.3167,73.35,74,95,2.46,CN,1698509617
252,okhotsk,59.3833,143.3,25.47,83,99,13.53,RU,1698509618
253,aswan,24.0934,32.907,96.1,21,0,9.22,EG,1698509618
254,swan hill,-35.3378,143.5544,53.74,38,2,2.39,AU,1698509619
255,taltal,-25.4,-70.4833,64.58,67,13,6.96,CL,1698509619
256,miri,4.4148,114.0089,78.15,85,89,3.06,MY,1698509619
257,mount isa,-20.7333,139.5,78.57,9,4,6.91,AU,1698509620
258,de aar,-30.6497,24.0123,55.17,46,100,28.36,ZA,1698509620
259,katabu,-4.9333,122.5167,73.98,89,69,4.14,ID,1698509620
260,ujae,8.9322,165.7642,83.39,75,13,11.07,MH,1698509621
261,alta,69.9689,23.2717,22.26,81,0,6.91,NO,1698509621
262,meijel,51.3443,5.8855,56.1,86,53,14.58,NL,1698509621
263,berezovo,63.9381,65.0419,12.6,92,6,2.59,RU,1698509622
264,ishigaki,24.3448,124.1572,76.66,61,99,13.0,JP,1698509622
265,olyokminsk,60.3736,120.4264,28.49,76,100,5.37,RU,1698509623
266,fort bragg,35.139,-79.006,80.44,55,0,9.22,US,1698509623
267,gweru,-19.45,29.8167,83.46,13,2,4.16,ZW,1698509623
268,gobabis,-22.45,18.9667,90.3,9,0,14.25,NA,1698509624
269,morrope,-6.5417,-80.0111,80.71,60,100,9.04,PE,1698509624
270,colonial heights,37.268,-77.4073,84.27,55,0,3.44,US,1698509624
271,vilhena,-12.7406,-60.1458,92.07,37,97,6.29,BR,1698509523
272,bozdar wada,27.1828,68.636,85.96,21,40,4.79,PK,1698509625
273,saint-francois,46.4154,3.9054,62.65,60,0,8.05,FR,1698509625
274,obninsk,55.0969,36.6103,33.08,57,100,11.01,RU,1698509626
275,tidjikja,18.5564,-11.4271,98.76,7,0,8.79,MR,1698509626
276,gorontalo,0.5412,123.0595,73.63,74,88,1.61,ID,1698509627
277,ronne,55.1009,14.7066,44.51,81,100,6.91,DK,1698509627
278,igrim,63.1906,64.4162,17.46,79,1,0.98,RU,1698509627
279,valparaiso,-33.0393,-71.6273,63.0,66,75,11.5,CL,1698509529
280,new norfolk,-42.7826,147.0587,51.93,71,63,7.23,AU,1698509628
281,port moresby,-9.4431,147.1797,75.18,92,85,7.52,PG,1698509628
282,lebu,-37.6167,-73.65,54.07,88,100,22.7,CL,1698509629
283,yaring,6.8662,101.3689,79.27,83,100,0.92,TH,1698509629
284,pascagoula,30.3658,-88.5561,81.32,63,0,5.75,US,1698509630
285,kulhudhuffushi,6.6221,73.07,82.56,76,90,7.61,MV,1698509630
286,ust'-kut,56.7938,105.7672,18.45,50,45,8.99,RU,1698509631
287,borgarnes,64.5383,-21.9206,44.65,75,100,5.77,IS,1698509631
288,kuanda,56.3161,116.0806,26.15,85,100,9.24,RU,1698509632
289,burang,30.25,81.1667,35.55,79,100,3.87,CN,1698509632
290,camargo,27.6667,-105.1667,76.71,56,3,14.29,MX,1698509632
291,shats'k,51.5021,23.9381,45.61,86,94,2.84,UA,1698509633
292,bandar-e lengeh,26.5579,54.8807,84.31,61,0,4.61,IR,1698509633
293,sambava,-14.2667,50.1667,76.24,85,2,5.91,MG,1698509634
294,quellon,-43.1167,-73.6167,48.04,72,81,21.79,CL,1698509634
295,lambarene,-0.7001,10.2406,86.79,65,21,3.76,GA,1698509635
296,lazaro cardenas,17.9583,-102.2,82.56,73,97,1.88,MX,1698509364
297,tumaco,1.7986,-78.8156,74.44,96,100,7.4,CO,1698509635
298,mhamid,29.82,-5.72,87.67,14,64,14.07,MA,1698509636
299,corralillo,22.9819,-80.5856,83.17,53,7,18.39,CU,1698509636
300,baranchinskiy,58.1617,59.6991,23.94,78,100,8.72,RU,1698509637
301,konosha,60.9736,40.257,25.83,91,99,6.82,RU,1698509637
302,necochea,-38.5473,-58.7368,78.03,35,62,8.1,AR,1698509637
303,fonte boa,-2.4959,-66.2662,89.17,58,100,2.73,BR,1698509638
304,novodvinsk,64.4165,40.8122,23.79,81,100,7.94,RU,1698509638
305,rabaul,-4.1967,152.1721,78.6,82,72,4.74,PG,1698509604
306,urucara,-2.5364,-57.76,104.68,23,84,6.46,BR,1698509639
307,axim,4.8699,-2.2405,83.46,69,24,7.47,GH,1698509639
308,antofagasta,-23.65,-70.4,66.33,67,7,8.28,CL,1698509640
309,antsohihy,-14.8796,47.9875,81.3,72,6,5.03,MG,1698509640
310,twon-brass,4.3151,6.2418,83.16,72,21,9.73,NG,1698509640
311,kourou,5.1552,-52.6478,91.45,58,35,12.26,GF,1698509641
312,kununurra,-15.7667,128.7333,66.18,55,55,2.3,AU,1698509641
313,timbiqui,2.7717,-77.6654,73.9,97,100,0.98,CO,1698509642
314,kapit,2.0167,112.9333,73.56,99,89,0.94,MY,1698509465
315,severoural'sk,60.1533,59.952,23.99,68,27,2.75,RU,1698509643
316,antsiranana,-12.2787,49.2917,77.43,83,7,13.51,MG,1698509643
317,tolanaro,-25.0319,46.9987,74.5,85,22,18.39,MG,1698509644
318,altai,46.3722,96.2583,30.49,49,39,4.27,MN,1698509644
319,sabaudia,41.3003,13.0282,71.73,73,6,6.87,IT,1698509645
320,filadelfia,39.9523,-75.1638,80.29,63,20,16.11,US,1698509645
321,rocha,-34.4833,-54.3333,79.11,48,35,6.42,UY,1698509645
322,ulladulla,-35.35,150.4667,45.77,78,63,7.18,AU,1698509646
323,longboat key,27.4125,-82.659,84.29,60,40,14.97,US,1698509547
324,lompoc,34.6391,-120.4579,60.6,79,0,15.99,US,1698509647
325,cromer,52.9312,1.2989,55.4,76,55,8.01,GB,1698509648
326,mossel bay,-34.1831,22.146,57.13,62,72,18.25,ZA,1698509648
327,egersund,58.4513,5.9997,43.09,64,70,21.79,NO,1698509649
328,mendi,-6.1761,143.6513,55.17,98,98,2.39,PG,1698509421
329,avarua,-21.2078,-159.775,69.85,73,71,6.91,CK,1698509650
330,poronaysk,49.2167,143.1167,33.28,80,46,5.17,RU,1698509650
331,najran,17.4924,44.1277,74.05,45,100,9.13,SA,1698509650
332,kirakira,-10.4544,161.9205,77.79,87,83,6.2,SB,1698509651
333,itaituba,-4.2761,-55.9836,105.37,21,19,4.99,BR,1698509457
334,oamaru,-45.0784,170.9801,48.38,88,94,3.58,NZ,1698509652
335,talnakh,69.4865,88.3972,2.21,92,81,1.79,RU,1698509652
336,rantoul,40.3084,-88.1559,47.98,76,75,13.8,US,1698509652
337,eenhana,-17.4667,16.3333,96.6,11,86,12.62,NA,1698509653
338,castillos,-34.1667,-53.8333,73.74,66,68,7.14,UY,1698509653
339,canatlan,24.5167,-104.7833,68.4,65,7,4.07,MX,1698509654
340,shushtar,32.0455,48.8567,81.39,25,92,5.66,IR,1698509654
341,rodniki,57.1051,41.7305,27.75,95,100,12.01,RU,1698509654
342,maceio,-9.6658,-35.7353,87.24,54,75,13.8,BR,1698509655
343,shingu,33.7333,135.9833,53.2,78,0,7.4,JP,1698509655
344,sidi akkacha,36.4647,1.3026,77.29,64,60,7.58,DZ,1698509656
345,mildura,-34.2,142.15,56.07,56,0,6.91,AU,1698509656
346,lichtenfels,50.1457,11.0593,53.13,86,100,7.11,DE,1698509657
347,arno,60.1167,18.6333,36.79,68,91,6.93,SE,1698509657
348,suva,-18.1416,178.4415,73.0,88,62,8.63,FJ,1698509657
349,kalianget,-7.05,113.9333,82.27,72,8,11.12,ID,1698509658
350,north fair oaks,37.4744,-122.1966,55.35,80,0,1.01,US,1698509658
351,petropavlovsk-kamchatsky,53.0452,158.6483,37.45,59,0,8.95,RU,1698509659
352,pisco,-13.7,-76.2167,71.65,78,40,11.5,PE,1698509660
353,trino,45.1921,8.2961,63.59,67,31,4.36,IT,1698509660
354,kingston,17.997,-76.7936,89.24,66,20,8.05,JM,1698509661
355,tadine,-21.55,167.8833,71.96,89,3,8.25,NC,1698509661
356,vila do maio,15.1333,-23.2167,86.79,76,87,14.94,CV,1698509662
357,tuban,-6.8976,112.0649,80.28,71,8,9.55,ID,1698509662
358,christiansburg,37.1298,-80.4089,77.83,65,3,7.14,US,1698509662
359,red hill,33.9996,-79.2581,80.91,67,0,5.26,US,1698509663
360,harper,4.375,-7.7169,81.95,74,55,9.6,LR,1698509363
361,san clemente del tuyu,-36.3569,-56.7235,72.99,71,2,11.61,AR,1698509664
362,arauca,7.0847,-70.7591,86.49,69,80,4.07,CO,1698509588
363,basco,20.4487,121.9702,79.39,79,22,12.62,PH,1698509665
364,kursavka,44.4564,42.5093,66.96,43,100,8.52,RU,1698509665
365,sanga-sanga,5.0725,119.7853,82.13,71,39,2.98,PH,1698509665
366,ercis,39.0287,43.3586,57.29,58,26,3.38,TR,1698509666
367,tura,25.5198,90.2201,66.83,73,0,3.6,IN,1698509666
368,sooke,48.3746,-123.7276,41.58,73,0,13.8,CA,1698509667
369,kenai,60.5544,-151.2583,35.15,97,20,8.05,US,1698509667
370,ibipeba,-11.6408,-42.0111,97.59,19,53,10.09,BR,1698509454
371,quatre cocos,-20.2078,57.7625,75.31,74,24,4.97,MU,1698509668
372,codrington,-38.2667,141.9667,40.86,92,94,6.35,AU,1698509668
373,agapovka,53.2973,59.1348,30.96,98,97,6.2,RU,1698509668
374,labrador city,52.9463,-66.9114,42.71,81,75,19.57,CA,1698509669
375,kerikeri,-35.2268,173.9474,54.91,90,100,3.0,NZ,1698509669
376,villa union,23.2,-106.2333,78.91,83,75,0.0,MX,1698509670
377,mersa matruh,31.3525,27.2453,77.2,65,0,6.91,EG,1698509670
378,bodo,67.28,14.405,33.84,95,75,9.22,NO,1698509671
379,minas de marcona,-15.2119,-75.1103,61.43,77,98,11.3,PE,1698509671
380,bereznehuvate,47.3078,32.8499,60.57,50,3,19.53,UA,1698509671
381,buala,-8.145,159.5921,78.87,84,96,3.44,SB,1698509672
382,mazagao,-0.115,-51.2894,93.25,35,7,5.91,BR,1698509672
383,koungou,-12.7336,45.2042,82.11,74,20,9.22,YT,1698509673
384,luganville,-15.5333,167.1667,75.02,88,50,7.67,VU,1698509673
385,chany,55.3121,76.7647,25.0,64,48,5.5,RU,1698509673
386,matay,28.419,30.7792,84.88,31,30,9.46,EG,1698509674
387,hilo,19.7297,-155.09,70.25,82,40,6.91,US,1698509478
388,buncrana,55.1333,-7.45,55.17,91,100,15.97,IE,1698509675
389,rio grande,-32.035,-52.0986,80.71,80,88,6.51,BR,1698509675
390,san jose del guaviare,2.5729,-72.6459,87.66,62,97,5.35,CO,1698509676
391,puerto baquerizo moreno,-0.9,-89.6,79.79,74,75,11.5,EC,1698509676
392,springbok,-29.6643,17.8865,69.31,14,0,21.3,ZA,1698509676
393,polovinnoye,54.7914,65.9864,27.34,80,100,10.76,RU,1698509677
394,santa ines,-3.6667,-45.38,102.72,26,69,7.23,BR,1698509677
395,dawson creek,55.7666,-120.2362,26.24,63,0,10.36,CA,1698509677
396,grand falls-windsor,48.9332,-55.6649,52.5,96,100,3.0,CA,1698509678
397,zima,53.9202,102.0442,23.13,85,93,3.65,RU,1698509678
398,batroun,34.2553,35.6581,75.54,81,1,9.73,LB,1698509679
399,inyonga,-6.7167,32.0667,83.91,27,87,2.48,TZ,1698509679
400,igarka,67.4667,86.5833,6.13,93,92,4.85,RU,1698509680
401,dudinka,69.4058,86.1778,8.67,99,90,3.0,RU,1698509680
402,pradopolis,-21.3594,-48.0656,73.58,43,84,10.25,BR,1698509681
403,selfoss,63.9331,-20.9971,42.04,68,97,7.78,IS,1698509681
404,san luis de la loma,17.2706,-100.8939,83.3,74,100,3.13,MX,1698509682
405,beroroha,-21.6667,45.1667,88.21,26,17,13.73,MG,1698509682
406,ghat,24.9647,10.1728,92.32,12,15,6.91,LY,1698509683
407,dwarka,22.2394,68.9678,81.77,72,51,10.63,IN,1698509683
408,pangody,65.85,74.4859,14.72,96,94,9.98,RU,1698509683
409,haiku-pauwela,20.9219,-156.3051,75.04,83,40,4.61,US,1698509684
410,al kharijah,25.4514,30.5464,86.34,28,0,11.3,EG,1698509684
411,port douglas,-16.4833,145.4667,74.3,72,71,12.26,AU,1698509685
412,tadmur,34.5608,38.2805,81.52,29,8,6.53,SY,1698509685
413,tonkino,57.3726,46.4629,27.68,95,100,11.43,RU,1698509686
414,dakhla,23.6848,-15.958,71.62,73,0,19.57,EH,1698509686
415,carutapera,-1.195,-46.02,91.13,53,14,13.15,BR,1698509686
416,yanchep,-31.55,115.6833,57.61,74,7,13.38,AU,1698509687
417,taber,49.8167,-112.1518,21.2,73,90,13.8,CA,1698509687
418,pohang,36.0322,129.365,55.17,78,23,6.04,KR,1698509688
419,dauphin,51.1494,-100.0502,26.74,68,20,18.41,CA,1698509689
420,ntcheu,-14.8203,34.6359,82.11,27,24,2.82,MW,1698509689
421,vallegrande,-18.4897,-64.1069,78.71,45,96,10.83,BO,1698509689
422,vila velha,-20.3297,-40.2925,85.95,66,40,17.27,BR,1698509605
423,anaco,9.4389,-64.4728,91.74,46,86,7.78,VE,1698509690
424,tavda,58.0425,65.2726,19.69,91,33,4.0,RU,1698509691
425,nikolayevsk-on-amure,53.1406,140.73,28.51,81,77,4.61,RU,1698509691
426,gadzhiyevo,69.2551,33.3362,24.67,88,100,3.98,RU,1698509691
427,dampit,-8.2116,112.7493,69.04,84,12,2.55,ID,1698509692
428,cururupu,-1.8283,-44.8683,90.86,51,31,9.89,BR,1698509510
429,alo,7.4178,6.7371,88.23,65,56,2.73,NG,1698509692
430,mogocha,53.7333,119.7667,30.96,71,100,1.57,RU,1698509693
431,acapulco de juarez,16.8634,-99.8901,83.61,74,100,4.41,MX,1698509550
432,namsos,64.4662,11.4957,33.85,80,100,2.3,NO,1698509693
433,podhum,43.7231,17.0011,57.81,86,16,2.71,BA,1698509694
434,zeya,53.75,127.2667,29.48,72,55,4.7,RU,1698509694
435,laojunmiao,39.8333,97.7333,44.62,35,68,2.15,CN,1698509694
436,raymondville,26.4815,-97.7831,88.09,50,0,13.87,US,1698509695
437,pitimbu,-7.4706,-34.8086,88.39,60,41,16.4,BR,1698509695
438,palmas,-10.2128,-48.3603,91.27,55,40,8.05,BR,1698509613
439,uhrichsville,40.3931,-81.3465,62.76,93,100,9.22,US,1698509696
440,namibe,-15.1961,12.1522,71.47,74,70,10.04,AO,1698509696
441,kuala belait,4.5833,114.1833,78.96,84,97,3.06,BN,1698509697
442,morant bay,17.8815,-76.4093,89.71,67,23,11.61,JM,1698509697
443,mount gambier,-37.8333,140.7667,41.07,93,90,3.24,AU,1698509697
444,dashitou,43.3067,128.5114,32.41,53,51,2.59,CN,1698509698
445,tamanrasset,22.785,5.5228,84.11,13,40,5.75,DZ,1698509698
446,pathein,16.7833,94.7333,76.73,91,98,3.53,MM,1698509698
447,coos bay,43.3665,-124.2179,39.92,93,0,9.22,US,1698509699
448,talara,-4.5772,-81.2719,79.56,61,75,6.91,PE,1698509699
449,simanggang,1.2472,111.4528,76.98,100,78,1.14,MY,1698509699
450,manakara,-22.1333,48.0167,75.15,87,56,9.55,MG,1698509700
451,kavieng,-2.5744,150.7967,81.03,83,10,14.34,PG,1698509700
452,slave lake,55.2834,-114.769,30.18,80,100,19.57,CA,1698509701
453,nguigmi,14.2495,13.1092,89.13,26,43,9.17,NE,1698509701
454,extrema,-22.8547,-46.3183,82.11,60,99,11.45,BR,1698509702
455,mil'kovo,55.6078,37.7956,33.35,98,100,11.77,RU,1698509703
456,hadibu,12.65,54.0333,80.11,73,76,9.46,YE,1698509704
457,kapa'a,22.0752,-159.319,71.58,77,0,9.22,US,1698509704
458,pimentel,-6.8367,-79.9342,80.89,57,0,5.75,PE,1698509705
459,mikun',62.3547,50.0771,23.88,86,99,9.15,RU,1698509705
460,faya-largeau,17.9257,19.1043,92.34,12,69,9.78,TD,1698509706
461,humaita,-7.5061,-63.0208,103.26,27,99,4.65,BR,1698509706
462,puerto armuelles,8.2833,-82.8667,84.18,84,85,1.01,PA,1698509707
463,constitucion,-35.3333,-72.4167,53.42,96,100,23.73,CL,1698509707
464,grand baie,-20.0182,57.5802,75.67,76,10,1.99,MU,1698509707
465,camacupa,-12.0167,17.4833,68.22,72,98,9.55,AO,1698509708
466,kepanjen,-8.1303,112.5727,69.94,88,10,1.19,ID,1698509708
467,sen monorom,12.45,107.2,68.38,99,99,2.75,KH,1698509709
468,maneromango,-7.1988,38.7848,75.22,73,100,6.91,TZ,1698509700
469,twentynine palms,34.1356,-116.0542,63.97,21,0,4.0,US,1698509710
470,piti village,13.4626,144.6933,82.45,93,75,3.44,GU,1698509710
471,neya,58.2972,43.8681,27.88,90,98,9.6,RU,1698509711
472,melekeok village,7.4957,134.6367,77.56,94,100,0.0,PW,1698509711
473,rio preto da eva,-2.6994,-59.6997,104.38,22,25,6.4,BR,1698509712
474,labytnangi,66.6572,66.4183,12.33,88,80,4.65,RU,1698509712
475,moldava nad bodvou,48.6143,20.9996,55.96,71,0,5.75,SK,1698509713
476,sandnessjoen,66.0217,12.6316,28.92,80,78,6.2,NO,1698509713
477,saint-joseph,-21.3667,55.6167,75.58,84,29,9.35,RE,1698509713
478,burayevo,55.8407,55.4083,30.63,97,99,9.69,RU,1698509714
479,olivenza,38.6832,-7.103,67.06,62,51,13.56,ES,1698509714
480,poso,-1.3959,120.7524,76.08,66,85,5.19,ID,1698509715
481,udpura,24.7167,75.9667,76.98,33,100,3.4,IN,1698509715
482,tocopilla,-22.092,-70.1979,67.62,70,15,7.4,CL,1698509716
483,okha,53.5739,142.9478,32.95,93,94,8.63,RU,1698509716
484,shache,38.4167,77.2406,60.96,26,8,6.44,CN,1698509717
485,asansol,23.6833,86.9833,72.86,47,3,4.23,IN,1698509717
486,kearney,40.6995,-99.0815,28.96,76,100,17.27,US,1698509718
487,chipinge,-20.1883,32.6236,80.24,32,11,9.22,ZW,1698509719
488,priozersk,61.0393,30.1291,35.01,86,100,8.32,RU,1698509719
489,suarez,2.954,-76.6964,67.6,98,100,1.36,CO,1698509719
490,caninde,-4.3589,-39.3117,100.35,18,6,11.34,BR,1698509720
491,arteche,12.2645,125.4048,78.82,87,23,3.83,PH,1698509720
492,sinabang,2.4803,96.3801,78.69,86,99,2.51,ID,1698509721
493,belize city,17.4995,-88.1976,86.02,79,75,11.5,BZ,1698509722
494,urzhar,47.093,81.6294,43.07,73,100,7.25,KZ,1698509722
495,calama,-22.4667,-68.9333,69.58,16,1,20.71,CL,1698509520
496,cidade velha,14.9167,-23.6167,86.47,62,20,18.41,CV,1698509723
497,berrotaran,-32.451,-64.3887,85.08,33,0,16.89,AR,1698509723
498,cacequi,-29.8836,-54.825,69.42,95,100,7.2,BR,1698509724
499,howard springs,-12.497,131.047,84.11,76,32,5.32,AU,1698509724
500,rio claro,-22.4114,-47.5614,87.31,51,81,11.56,BR,1698509463
501,shelekhov,52.2139,104.1,24.89,66,48,2.68,RU,1698509725
502,nova vicosa,-17.8919,-39.3719,81.36,70,99,9.53,BR,1698509725
503,portland,45.5234,-122.6762,42.78,72,0,8.99,US,1698509444
504,eyl,7.9803,49.8164,81.19,76,99,16.44,SO,1698509726
505,huicheng,23.0385,116.2899,73.13,81,100,11.45,CN,1698509727
506,tandalti,13.0167,31.8667,82.96,55,92,9.6,SD,1698509728
507,loango,-4.6719,11.8312,81.34,75,33,8.3,CG,1698509728
508,leiyang,26.4024,112.8591,68.86,79,94,1.63,CN,1698509729
509,perdoes,-21.0908,-45.0914,82.8,57,100,11.7,BR,1698509729
510,uyuni,-20.4597,-66.825,56.25,7,36,27.13,BO,1698509730
511,raichur,16.2,77.3667,81.43,57,100,8.14,IN,1698509730
512,port isabel,26.0734,-97.2086,88.02,65,20,18.41,US,1698509731
513,puerto madryn,-42.7692,-65.0385,70.21,26,100,42.48,AR,1698509720
514,san rafael,-34.6177,-68.3301,79.63,15,1,9.06,AR,1698509731
515,ambodifotatra,-16.9833,49.85,78.89,81,7,8.61,MG,1698509732
516,enkoping,59.6361,17.0777,33.84,75,88,5.28,SE,1698509732
517,palikir - national government center,6.9248,158.1611,74.14,100,100,2.3,FM,1698509733
518,patnagarh,20.7167,83.15,69.84,60,0,0.54,IN,1698509733
519,whitefish,48.4111,-114.3376,17.35,86,0,0.0,US,1698509734
520,new martinsville,39.6445,-80.8576,70.92,99,100,3.0,US,1698509734
521,devils lake,48.1128,-98.8651,21.18,86,20,19.57,US,1698509581
522,n'dalatando,-9.2978,14.9116,84.88,46,96,0.81,AO,1698509735
523,wuchuan,21.4571,110.7659,75.63,90,100,8.43,CN,1698509735
524,thai nguyen,21.5928,105.8442,74.98,90,100,4.25,VN,1698509735
525,dhuusamarreeb,5.535,46.3861,86.13,47,100,8.72,SO,1698509736
526,dalandzadgad,43.5708,104.425,47.19,38,49,18.12,MN,1698509738
527,tromso,69.6496,18.957,30.22,74,20,5.75,NO,1698509739
528,mudon,16.2578,97.7164,77.99,86,90,2.21,MM,1698509739
529,kalajoki,64.25,23.95,29.91,86,16,2.42,FI,1698509740
530,sao bernardo,-3.3614,-42.4178,108.0,16,66,5.59,BR,1698509507
531,xinqing,48.2333,129.5,29.62,63,45,2.37,CN,1698509740
532,satana,20.5833,74.2,73.71,35,33,3.76,IN,1698509741
533,remire-montjoly,4.9167,-52.2667,91.44,62,75,14.97,GF,1698509741
534,bhimunipatnam,17.8833,83.4333,80.11,73,74,2.62,IN,1698509741
535,veroia,40.5233,22.2036,75.67,56,57,3.0,GR,1698509742
536,grajau,-5.8194,-46.1386,98.38,30,64,8.48,BR,1698509742
537,olinda,-8.0089,-34.8553,85.73,58,40,12.66,BR,1698509743
538,kavaratti,10.5669,72.642,84.11,66,75,2.35,IN,1698509743
539,urangan,-25.3,152.9,67.71,67,1,17.9,AU,1698509744
540,onega,63.9061,38.1404,25.48,91,100,9.44,RU,1698509744
541,ebaye,8.7748,167.7392,82.42,78,0,11.79,MH,1698509744
542,zionsville,39.9509,-86.2619,52.18,81,100,11.5,US,1698509745
543,caririacu,-7.0422,-39.2836,97.38,17,18,7.0,BR,1698509745
544,siemiatycze,52.4272,22.8623,44.38,81,99,3.94,PL,1698509746
545,turbat,26.0023,63.044,84.83,37,0,12.37,PK,1698509746
546,bartica,6.4,-58.6167,91.72,43,99,4.29,GY,1698509746
547,taulaga,-11.0553,-171.0883,82.08,78,43,6.33,AS,1698509542
